{"type":"FeatureCollection","features":[{"type":"Feature","geometry":{"type":"Point","coordinates":[-14.333403110504152,28.05291432578]},"properties":{"Name":"Stella Canaris","Description":"Urtyp Xerbutri op vakantie in het Stella Canaris Montesol hotel ","Icon":"gebouw","Route":"hofu","Category":"gebouw"}},{"type":"Feature","geometry":{"type":"Point","coordinates":[2.470335960388183,46.19406411474779]},"properties":{"Name":"Goudmijn Châtelet","Description":"Team Xerbutri bezoekt een verlaten goudmijn in midden Frankrijk","Icon":"gebouw","Route":"vgmc","Category":"gebouw"}},{"type":"Feature","geometry":{"type":"Point","coordinates":[6.7853450775146475,49.1613074700312]},"properties":{"Name":"Koolmijn Lorraine","Description":"Team Xerbutri betrapt in steenkolenmijn Sainte-Fontaine","Icon":"gebouw","Route":"skfe","Category":"gebouw"}},{"type":"Feature","geometry":{"type":"Point","coordinates":[7.113089561462402,49.35054317690739]},"properties":{"Name":"Mijn Grube Reden","Description":"Steenkolenmijn Grube Reden","Icon":"gebouw","Route":"skgr","Category":"gebouw"}},{"type":"Feature","geometry":{"type":"Point","coordinates":[6.546521186828613,49.46991113758784]},"properties":{"Name":"Sanatorium Saar","Description":"Team Xerbutri bezoekt TBC-sanatorium Scheuerhof","Icon":"gebouw","Route":"zss","Category":"gebouw"}},{"type":"Feature","geometry":{"type":"Point","coordinates":[7.283248901367186,47.84770248585801]},"properties":{"Name":"Kaliummijn Rodolphe","Description":"Bezoek aan de voormalige kalium mijn Rodolphe te Pulversheim, tegenwoordig een museum.","Icon":"gebouw","Route":"pmp","Category":"gebouw"}},{"type":"Feature","geometry":{"type":"Point","coordinates":[6.15629031222704,49.30487305147193]},"properties":{"Name":"Parc Uckange","Description":"Parc de haut fourneaux d Uckange hf-u4","Icon":"gebouw","Route":"hfu","Category":"gebouw"}},{"type":"Feature","geometry":{"type":"Point","coordinates":[5.96534,49.482767]},"properties":{"Name":"Atelier Montrouge","Description":"Centrale werkplaatsen Montrouge","Icon":"gebouw","Route":"hfoa","Category":"gebouw"}},{"type":"Feature","geometry":{"type":"Point","coordinates":[5.434455871582031,49.0366951126071]},"properties":{"Name":"Fort de Meuse","Description":"Team Xerbutri gaat terug naar het Fort van Génicourt","Icon":"gebouw","Route":"mdfg","Category":"gebouw"}},{"type":"Feature","geometry":{"type":"Point","coordinates":[5.502559840679168,51.42190837799362]},"properties":{"Name":"Sint Josephkerk","Description":"Ferdinand bezoekt de voormalige Sint Josephkerk in Tivoli, Eindhoven","Icon":"gebouw","Route":"kti","Category":"gebouw"}},{"type":"Feature","geometry":{"type":"Point","coordinates":[4.619229622185229,50.1792913015698]},"properties":{"Name":"Groeve Madame","Description":"De oude marmergroeve Madame bij Merlemont. In deze groeve werd rode marmer gewonnen. Ze is waarschijnlijk in 1967 gesloten.","Icon":"gebouw","Route":"hlf","Category":"gebouw"}},{"type":"Feature","geometry":{"type":"Point","coordinates":[6.274394989013672,51.21259146605658]},"properties":{"Name":"Kent school","Description":"Een oud klooster en internaat met een beladen geschiedenis. Gesticht als fransiscaner ziekenhuis. Door de nazi's overgenomen als euthanasie-centrum. Na de oorlog heeft het Britse leger hier een ziekenhuis en school gehad","Icon":"gebouw","Route":"zjh","Category":"gebouw"}},{"type":"Feature","geometry":{"type":"Point","coordinates":[7.04362318920551,51.48959988731812]},"properties":{"Name":"Zollverein","Description":"Team Xerbutri bezoekt Zeche Zollverein","Icon":"gebouw","Route":"skzv","Category":"gebouw"}},{"type":"Feature","geometry":{"type":"Point","coordinates":[6.86109366577671,51.22197018875215]},"properties":{"Name":"Glashütte","Description":"Een heel kort bezoek van Team Xerbutri aan de Gerresheimer glasfabriek, waar de bewaking voor ons klaar stond.","Icon":"gebouw","Route":"hgg","Category":"gebouw"}},{"type":"Feature","geometry":{"type":"Point","coordinates":[5.504647,51.432616]},"properties":{"Name":"DAF toren","Description":"DAF Toren, Eindhoven","Icon":"gebouw","Route":"hdt","Category":"gebouw"}},{"type":"Feature","geometry":{"type":"Point","coordinates":[7.19586397342898,51.70175001614618]},"properties":{"Name":"Koolmijn Holdern","Description":"Steenkoolmijn Holdern","Icon":"gebouw","Route":"sksh","Category":"gebouw"}},{"type":"Feature","geometry":{"type":"Point","coordinates":[6.75056432628134,51.47421577454199]},"properties":{"Name":"Sinteranlage 2","Description":"Team Xerbutri brengt een tweede bezoek aan de Sinteranlage in Duisburg","Icon":"gebouw","Route":"hfsd2","Category":"gebouw"}},{"type":"Feature","geometry":{"type":"Point","coordinates":[7.03573380837979,51.57015832929031]},"properties":{"Name":"Koolmijn Hugo C","Description":"Steenkoolmijn Hugo C","Icon":"gebouw","Route":"skhc","Category":"gebouw"}},{"type":"Feature","geometry":{"type":"Point","coordinates":[6.86856611609336,51.51970474613859]},"properties":{"Name":"Mijn Oosterveld","Description":"Team Xerbutri bezoekt de vervallen schacht 4 van de steenkolenmijn Osterfeld","Icon":"gebouw","Route":"skof","Category":"gebouw"}},{"type":"Feature","geometry":{"type":"Point","coordinates":[3.409280776977539,49.44481166889073]},"properties":{"Name":"Wolvenkloof Hitler","Description":"Een ijskoud bezoek aan de Fuhrerbunker Wulfsschlucht II","Icon":"gebouw","Route":"mdw2","Category":"gebouw"}},{"type":"Feature","geometry":{"type":"Point","coordinates":[5.57689017561281,51.44967987092562]},"properties":{"Name":"Stairway to h...","Description":"Team Xerbutri klimt naar het uitzichtpunt Stairway to Heaven","Icon":"gebouw","Route":"rgu","Category":"gebouw"}},{"type":"Feature","geometry":{"type":"Point","coordinates":[5.2379228255788,50.5024575336669]},"properties":{"Name":"Papet. Godinne","Description":"Ferdinand Xerbutri bezoekt de lege papierfabriek Papeteries de Godinne","Icon":"gebouw","Route":"hfgp","Category":"gebouw"}},{"type":"Feature","geometry":{"type":"Point","coordinates":[5.427074432373046,49.91390403203226]},"properties":{"Name":"Villa Petite Terre","Description":"Een spookhuis op een voormalig landgoed in de Belgische Ardennen, sinds 2009 is dit huis weer bewoond.","Icon":"gebouw","Route":"hoha","Category":"gebouw"}},{"type":"Feature","geometry":{"type":"Point","coordinates":[7.11812595283348,51.60861949038843]},"properties":{"Name":"Mijn Moker&Beitel","Description":"Team Xerbutri bezoekt de steenkoolmijn Schlägel und Eisen Schacht 7","Icon":"gebouw","Route":"skeh","Category":"gebouw"}},{"type":"Feature","geometry":{"type":"Point","coordinates":[7.26563034805665,51.64269737389185]},"properties":{"Name":"Koolmijn Ewoud V","Description":"Team Xerbutri klimt door een klein raampje op tientallen meters hoogt bij het bezoek aan Steenkoolmijn Ewoud V","Icon":"gebouw","Route":"skef","Category":"gebouw"}},{"type":"Feature","geometry":{"type":"Point","coordinates":[7.23991206587932,51.58598076685169]},"properties":{"Name":"Koolmijn Lodewijk","Description":"Steenkoolmijn Koning Lodewijk","Icon":"gebouw","Route":"skkl","Category":"gebouw"}},{"type":"Feature","geometry":{"type":"Point","coordinates":[7.49029063488598,51.53857409708456]},"properties":{"Name":"Cokes Keizerstoel","Description":"Urtyp Xerbutri rent voor zijn leven, achternagezeten door beveiliging bij de Cokes fabriek Kaiserstuhl Dortmund","Icon":"gebouw","Route":"koka","Category":"gebouw"}},{"type":"Feature","geometry":{"type":"Point","coordinates":[7.25488813486312,51.69682956134989]},"properties":{"Name":"Koolmijn Vuurplaats","Description":"Team Xerbutri beklimt de goed bewaakte steenkolenmijn Aan de Haard.","Icon":"gebouw","Route":"skadh","Category":"gebouw"}},{"type":"Feature","geometry":{"type":"Point","coordinates":[5.08962482316272,52.08873350798021]},"properties":{"Name":"Cereol Utrecht","Description":"Team Xerbutri weerstaat de stank en duiven van de sojafabriek Cereol te Utrecht","Icon":"gebouw","Route":"hfc","Category":"gebouw"}},{"type":"Feature","geometry":{"type":"Point","coordinates":[5.11412158694369,52.06265097791916]},"properties":{"Name":"Fabriek Neerlandia","Description":"Team Xerbutri op zoek naar waakhonden op het Prozeeterrein, de oude fabriek Neerlandia te Utrecht","Icon":"gebouw","Route":"hfn","Category":"gebouw"}},{"type":"Feature","geometry":{"type":"Point","coordinates":[5.049569606781007,51.68240235650063]},"properties":{"Name":"Willem College","Description":"Middelbare school Willem van Oranje College, Waalwijk","Icon":"gebouw","Route":"owvo","Category":"gebouw"}},{"type":"Feature","geometry":{"type":"Point","coordinates":[6.7806240769597,51.47963560684684]},"properties":{"Name":"Hoogovens LaPaDu","Description":"Team Xerbutri bezoekt het Landschaftspark Duisburg Nord","Icon":"gebouw","Route":"lapadu","Category":"gebouw"}},{"type":"Feature","geometry":{"type":"Point","coordinates":[4.6191179752349845,52.4189449167916]},"properties":{"Name":"Prov. Ziekenhuis","Description":"Ferdinand bezoekt het spookziekenhuis Meer en Berg met andere urban explorers","Icon":"gebouw","Route":"pzs","Category":"gebouw"}},{"type":"Feature","geometry":{"type":"Point","coordinates":[6.979343891143799,52.95769464557384]},"properties":{"Name":"De Haan Fabriek","Description":"Urban exploren in de gevandaliseerde machinefabriek in iemands achtertuin.","Icon":"gebouw","Route":"hmu","Category":"gebouw"}},{"type":"Feature","geometry":{"type":"Point","coordinates":[6.739661693572998,52.65637543473494]},"properties":{"Name":"De Centrale Coevorden","Description":"De aardappelmeelfabriek De Centrale Coevorden werd in 1908 geopend. In 1944 werd een groot deel van de fabriek vernietigd. Na de tweede wereldoorlog is de fabriek heropgebouwd, maar sloot na een fusie in 1964. In 2011 is het pand gesloopt.","Icon":"gebouw","Route":"afc","Category":"gebouw"}},{"type":"Feature","geometry":{"type":"Point","coordinates":[6.75056432628134,51.47421577454199]},"properties":{"Name":"Sinteranlage","Description":"Team Xerbutri bezoekt de roestige sinter-fabriek in het Ruhrgebied.","Icon":"gebouw","Route":"hfsd","Category":"gebouw"}},{"type":"Feature","geometry":{"type":"Point","coordinates":[3.985590934753418,50.96798355593751]},"properties":{"Name":"Kasteel Mesen","Description":"Team Xerbutri op spokenjacht in het kasteel van Mesen","Icon":"gebouw","Route":"kmsn","Category":"gebouw"}},{"type":"Feature","geometry":{"type":"Point","coordinates":[7.515163421630861,51.41607882512608]},"properties":{"Name":"Atelier Brüninghaus","Description":"Team Xerbutri bezoekt de verlaten treinwagonbouwfabriek in Westhofen","Icon":"gebouw","Route":"fbhw","Category":"gebouw"}},{"type":"Feature","geometry":{"type":"Point","coordinates":[5.53748819587635,50.994799668235]},"properties":{"Name":"Koolmijn Waterschei","Description":"Team Xerbutri bezoekt de steenkolenmijn Waterschei te Genk","Icon":"gebouw","Route":"skwa","Category":"gebouw"}},{"type":"Feature","geometry":{"type":"Point","coordinates":[5.521144866943359,50.66195294141059]},"properties":{"Name":"Fabriek CIA Luik","Description":"De geheimzinnige voormalige fabriek CIA in Luik","Icon":"gebouw","Route":"fcia","Category":"gebouw"}},{"type":"Feature","geometry":{"type":"Point","coordinates":[5.956207886338235,50.72067640196968]},"properties":{"Name":"Montzen station","Description":"Trainspotting in het verlaten station van Montzen, een urban adventure","Icon":"gebouw","Route":"smo","Category":"gebouw"}},{"type":"Feature","geometry":{"type":"Point","coordinates":[7.373886108398438,50.19022806181155]},"properties":{"Name":"De Dodenkapel","Description":"In deze dodenkapel doen we een lugubere ontdekking","Icon":"gebouw","Route":"kdo","Category":"gebouw"}},{"type":"Feature","geometry":{"type":"Point","coordinates":[6.430667191743851,51.07991859487981]},"properties":{"Name":"Borschemich","Description":"Borschemich was een dorpje in de gemeente Erkelenz en is in 2017 verzwolgen door de bruinkoolmijn Garzweiler.","Icon":"gebouw","Route":"vbo","Category":"gebouw"}},{"type":"Feature","geometry":{"type":"Point","coordinates":[6.55623748898506,51.478237431310646]},"properties":{"Name":"Kinderparty Bus","Description":"Urban exploren in een stadsbus: De verlaten kinderparty bus van McDonalds","Icon":"gebouw","Route":"vpb","Category":"gebouw"}},{"type":"Feature","geometry":{"type":"Point","coordinates":[6.43746055662632,51.051461827965966]},"properties":{"Name":"Immerath","Description":"Ons bezoek aan het spookachtig verlaten dorp Immerath, aan de rand van bruinkoolmijn Garzweiler","Icon":"gebouw","Route":"vima","Category":"gebouw"}},{"type":"Feature","geometry":{"type":"Point","coordinates":[6.5140342712402335,51.4289712682367]},"properties":{"Name":"Mijn Teunisberg","Description":"De meeste gebouwen van deze steenkoolmijn zijn nog in gebruik, we namen een kijkje in een verlaten gebouw","Icon":"gebouw","Route":"skto","Category":"gebouw"}},{"type":"Feature","geometry":{"type":"Point","coordinates":[6.4573605358600625,51.0554315706627]},"properties":{"Name":"Spookdorp Pesch","Description":"Pesch was een voormalig dorpje met een paar honderd inwoners. Nu rest er slechts een gat in de grond.","Icon":"gebouw","Route":"vpe","Category":"gebouw"}},{"type":"Feature","geometry":{"type":"Point","coordinates":[4.480147361755371,51.18627207628179]},"properties":{"Name":"Fort 3 Antwerpen","Description":"Een urbex-avontuur op Fort 3. Met wat klimwerk bezoeken we het redoute","Icon":"gebouw","Route":"mdf3","Category":"gebouw"}},{"type":"Feature","geometry":{"type":"Point","coordinates":[4.45941288024187,51.17413906178905]},"properties":{"Name":"Fort 4 Antwerpen","Description":"Een wandeling in het park van Fort 4 te Mortsel","Icon":"gebouw","Route":"mdf4","Category":"gebouw"}},{"type":"Feature","geometry":{"type":"Point","coordinates":[7.013053894042968,50.89592124663088]},"properties":{"Name":"Fort IX Keulen","Description":"Foto's schieten op de filmlocatie van voormalig fort IX te Keulen","Icon":"gebouw","Route":"fk","Category":"gebouw"}},{"type":"Feature","geometry":{"type":"Point","coordinates":[5.519814491271973,50.66274184512647]},"properties":{"Name":"CIA Revisited","Description":"We zijn weer terug bij de CIA in Luik, dit keer fotograferen we alle gebouwen.","Icon":"gebouw","Route":"holp","Category":"gebouw"}},{"type":"Feature","geometry":{"type":"Point","coordinates":[7.2284674644470215,50.5739594161928]},"properties":{"Name":"Hotel Waldburg","Description":"Een bezoek aan het sinds 1970 leegstaande hotel Zur Waldberg","Icon":"gebouw","Route":"ruwa","Category":"gebouw"}},{"type":"Feature","geometry":{"type":"Point","coordinates":[6.635795831680297,51.51992039328667]},"properties":{"Name":"Huis Wolfskuilen","Description":"Een spookachtig bezoek aan de ruïne van slot Wolfskuhlen","Icon":"gebouw","Route":"ruwo","Category":"gebouw"}},{"type":"Feature","geometry":{"type":"Point","coordinates":[6.286604404449463,51.95564081240681]},"properties":{"Name":"Veevoerfabriek ABC D","Description":"Rennen voor een hond bij de veevoerfabriek in Doetinchem","Icon":"gebouw","Route":"hfff","Category":"gebouw"}},{"type":"Feature","geometry":{"type":"Point","coordinates":[4.585247039794921,51.24027321545031]},"properties":{"Name":"Schans Schilde","Description":"De tijd staat stil in de ingestorte schans van Schilde. ","Icon":"gebouw","Route":"mdss","Category":"gebouw"}},{"type":"Feature","geometry":{"type":"Point","coordinates":[4.354673624038696,51.15759404732134]},"properties":{"Name":"Schans Zestien","Description":"Team Xerbutri brengt een kort bezoek aan de zestiende schans van Antwerpen","Icon":"gebouw","Route":"mdsz","Category":"gebouw"}},{"type":"Feature","geometry":{"type":"Point","coordinates":[7.252006530761718,50.65093410793284]},"properties":{"Name":"Grafitti Wasserij","Description":"Met alle lelijke graffiti hier noemen we haar graffiti fabriek, urban exploring in de oude wasserij Mesenholl","Icon":"gebouw","Route":"hfg","Category":"gebouw"}},{"type":"Feature","geometry":{"type":"Point","coordinates":[6.224098205566406,50.81060766149787]},"properties":{"Name":"MD Astrid Noord","Description":"Xerbutri brengt een tweede bezoek aan Sperrgebiet Camp Astrid","Icon":"gebouw","Route":"mcan","Category":"gebouw"}},{"type":"Feature","geometry":{"type":"Point","coordinates":[6.515965461730957,50.43917162989817]},"properties":{"Name":"Bahnwerke Eifel","Description":"In bos verstopte ingestorte treinloods bezocht door Team Xerbutri","Icon":"gebouw","Route":"bwkz","Category":"gebouw"}},{"type":"Feature","geometry":{"type":"Point","coordinates":[6.9115161895751935,50.476247514079]},"properties":{"Name":"Ruïne Wensburg","Description":"Ruïne Kasteel Wensburg","Icon":"gebouw","Route":"ruwe","Category":"gebouw"}},{"type":"Feature","geometry":{"type":"Point","coordinates":[4.3936729431152335,50.4430505728234]},"properties":{"Name":"Atelier SNCB Roux","Description":"Team Xerbutri bezoekt de verlaten treinwerkplaats en treinkerkhof te Roux","Icon":"gebouw","Route":"bwrx","Category":"gebouw"}},{"type":"Feature","geometry":{"type":"Point","coordinates":[5.069117546081544,51.56166695455059]},"properties":{"Name":"Petrol Tilburg","Description":"Bezoek aan de voormalige oliehandel Van Beurden te Tilburg","Icon":"gebouw","Route":"hbpt","Category":"gebouw"}},{"type":"Feature","geometry":{"type":"Point","coordinates":[4.496970176696777,50.39485619682568]},"properties":{"Name":"Koolmijn Boubier","Description":"Een stop bij Carolo beton","Icon":"gebouw","Route":"hcb","Category":"gebouw"}},{"type":"Feature","geometry":{"type":"Point","coordinates":[4.500446319580078,50.40857650486131]},"properties":{"Name":"Staal H-Samber","Description":"Ontmoeting met airsoft-mannen in een oude staalfabriek aan de Samber","Icon":"gebouw","Route":"hhs","Category":"gebouw"}},{"type":"Feature","geometry":{"type":"Point","coordinates":[4.3879008293151855,50.4288912994679]},"properties":{"Name":"Atelier SNCB Mon eau","Description":"Team Xerbutri bezoekt de verlaten treinwerkplaats Monceau","Icon":"gebouw","Route":"bwmc","Category":"gebouw"}},{"type":"Feature","geometry":{"type":"Point","coordinates":[7.250562496483326,50.66401825986818]},"properties":{"Name":"Ruïne Löwenburg","Description":"We slapen in het idyllische zevengebergte op de oude burchtruïne Löwenburg. ","Icon":"gebouw","Route":"rulo","Category":"gebouw"}},{"type":"Feature","geometry":{"type":"Point","coordinates":[5.539163947105408,49.80073441966527]},"properties":{"Name":"Traction Sud","Description":"Een wandeling over het autokerkhof Traction Sud","Icon":"gebouw","Route":"ts","Category":"gebouw"}},{"type":"Feature","geometry":{"type":"Point","coordinates":[5.691518783569334,49.62376630168646]},"properties":{"Name":"Chatillon","Description":"Voormalig autokerkhof bij het dorp Chatillon, ook wel bekend als Traffic Jam","Icon":"gebouw","Route":"tch","Category":"gebouw"}},{"type":"Feature","geometry":{"type":"Point","coordinates":[5.609550476074218,50.63301065558113]},"properties":{"Name":"Fort de la Chartreuse","Description":"Een drieluik van het fort de la Chartreuse","Icon":"gebouw","Route":"mdch","Category":"gebouw"}},{"type":"Feature","geometry":{"type":"Point","coordinates":[6.713461875915526,44.8939468943598]},"properties":{"Name":"Alpenfort Gondran","Description":"Fietstocht langs de Maginot linie in de Alpen, bezoek aan linie van Gondran","Icon":"gebouw","Route":"mfag","Category":"gebouw"}},{"type":"Feature","geometry":{"type":"Point","coordinates":[13.005065917968748,52.5311123736055]},"properties":{"Name":"Sovjetkazerne Berlin","Description":"Team Xerbutri bezoekt een oude sovjet-kazerne nabij Berlijn","Icon":"gebouw","Route":"msuw","Category":"gebouw"}},{"type":"Feature","geometry":{"type":"Point","coordinates":[5.176198873668908,52.07518802182656]},"properties":{"Name":"Fort Rhijnauwen","Description":"Een open dag op het Fort bij Rhijnauwen","Icon":"gebouw","Route":"mfry","Category":"gebouw"}},{"type":"Feature","geometry":{"type":"Point","coordinates":[5.701432228088379,51.50047695654217]},"properties":{"Name":"Hoeve Bakels Beemd","Description":"Een verlaten boerderij in de Bakelse Beemden","Icon":"gebouw","Route":"vbbb","Category":"gebouw"}},{"type":"Feature","geometry":{"type":"Point","coordinates":[5.4624152183532715,50.1302099504224]},"properties":{"Name":"Ferme d'Abandonce","Description":"Een verlaten boerderij in een bos","Icon":"gebouw","Route":"vbch","Category":"gebouw"}},{"type":"Feature","geometry":{"type":"Point","coordinates":[3.494725227355957,51.38635628580604]},"properties":{"Name":"Bunkerpark Groede","Description":"Vrij toegankelijk, voormalig Duits bunkerstelsel van de Atlantikwall te Groede","Icon":"gebouw","Route":"mfg","Category":"gebouw"}},{"type":"Feature","geometry":{"type":"Point","coordinates":[4.52239751815796,51.3310829857696]},"properties":{"Name":"Chateau Blanc","Description":"Een verhaal over bluf en toeval, en een wit kasteel, welk een populaire urbex-bestemming bleek te zijn","Icon":"gebouw","Route":"kwh","Category":"gebouw"}},{"type":"Feature","geometry":{"type":"Point","coordinates":[4.359480142593384,51.38386235393898]},"properties":{"Name":"Wilhelmina Kazerne","Description":"Rennen voor honden bij de Wilhelmina kazerne, oefenterrein voor de politie en het Korps Commando Troepen","Icon":"gebouw","Route":"mkwk","Category":"gebouw"}},{"type":"Feature","geometry":{"type":"Point","coordinates":[6.130371093749999,50.66601038363717]},"properties":{"Name":"Station Raeren","Description":"Een winters bezoek aan het stationsgebied te Raeren","Icon":"gebouw","Route":"srae","Category":"gebouw"}},{"type":"Feature","geometry":{"type":"Point","coordinates":[5.7623934745788565,50.6234008130676]},"properties":{"Name":"Charbonnage Renard","Description":"Een steenkoolmijn in het land van Herve","Icon":"gebouw","Route":"skwj","Category":"gebouw"}},{"type":"Feature","geometry":{"type":"Point","coordinates":[6.324434280395508,51.18128835960326]},"properties":{"Name":"Joined Head Quarters","Description":"Het verenigde hoofdkwartier van de NAVO strijdkrachten te West-Europa","Icon":"gebouw","Route":"mjhq","Category":"gebouw"}},{"type":"Feature","geometry":{"type":"Point","coordinates":[5.440442562103271,51.34710174904606]},"properties":{"Name":"Dommelboerderij","Description":"Vroeg voor zonsopkomst sluipen we de Dommelboerderij binnen, een urban adventure","Icon":"gebouw","Route":"vbdb","Category":"gebouw"}},{"type":"Feature","geometry":{"type":"Point","coordinates":[5.472607612609863,50.65194087408781]},"properties":{"Name":"Kazerne De Cubber","Description":"Team Xerbutri ontmoet geen zwerver bij oude luchtmachtkazerne De Cubber","Icon":"gebouw","Route":"mkcb","Category":"gebouw"}},{"type":"Feature","geometry":{"type":"Point","coordinates":[6.131315231323241,50.73037925116594]},"properties":{"Name":"Camp Hitfeld","Description":"Ferdinand Xerbutri sluipt door Camp Hitfeld","Icon":"gebouw","Route":"mch","Category":"gebouw"}},{"type":"Feature","geometry":{"type":"Point","coordinates":[5.488529205322266,50.66863015062117]},"properties":{"Name":"La Chaudronnerie","Description":"Wat een locatie! Team Xerbutri bezoekt La Chaudronnerie","Icon":"gebouw","Route":"hbha","Category":"gebouw"}},{"type":"Feature","geometry":{"type":"Point","coordinates":[6.193885803222655,51.23414284115486]},"properties":{"Name":"BRIMGeS Fabriek","Description":"Toevalstreffer, een bliksembezoek aan dakpannenfabriek Brimges","Icon":"gebouw","Route":"hbr","Category":"gebouw"}},{"type":"Feature","geometry":{"type":"Point","coordinates":[6.22924268245697,51.11476818704247]},"properties":{"Name":"RAF Pool W","Description":"Ferdinand Xerbutri infiltreert het terrein van verlaten militair zwembad Wildenrath","Icon":"gebouw","Route":"mzp","Category":"gebouw"}},{"type":"Feature","geometry":{"type":"Point","coordinates":[5.428404808044433,50.65479779568346]},"properties":{"Name":"Atelier SNCB Voroux","Description":"Ferdinand bezoekt het moord-atelier in het spoorbos bij Voroux-Goreux ","Icon":"gebouw","Route":"bwvx","Category":"gebouw"}},{"type":"Feature","geometry":{"type":"Point","coordinates":[5.463809967041016,50.64930572004454]},"properties":{"Name":"Hangar Bierset","Description":"Een voormalige vliegtuigloods - werkplaats op een militair vliegveld","Icon":"gebouw","Route":"mhb","Category":"gebouw"}},{"type":"Feature","geometry":{"type":"Point","coordinates":[5.4630374908447275,50.6522788671779]},"properties":{"Name":"Gebouw 27","Description":"Een gebouw aan de rand van een militair vliegveld","Icon":"gebouw","Route":"mhbz","Category":"gebouw"}},{"type":"Feature","geometry":{"type":"Point","coordinates":[6.281862258911134,51.14511810682936]},"properties":{"Name":"RAF Hospital W","Description":"Ferdinand bezoekt een verlaten militair ziekenhuis van de Britse Luchtmacht","Icon":"gebouw","Route":"zmn","Category":"gebouw"}},{"type":"Feature","geometry":{"type":"Point","coordinates":[5.808849334716797,51.52301187343428]},"properties":{"Name":"Peelboerderij","Description":"Een ijskoud bezoek aan een eenzame boerderij in de Peel","Icon":"gebouw","Route":"vbp","Category":"gebouw"}},{"type":"Feature","geometry":{"type":"Point","coordinates":[7.218875885009765,50.34135650041924]},"properties":{"Name":"Augustijner School","Description":"Ons avontuur in een augustijner internaat, een echte klim om binnen te komen.","Icon":"gebouw","Route":"oam","Category":"gebouw"}},{"type":"Feature","geometry":{"type":"Point","coordinates":[5.691046714782716,51.47271146200063]},"properties":{"Name":"Boerderij Duizeldonk","Description":"Team Xerbutri bezoekt de verlaten boerderij in Duizeldonk, Helmond","Icon":"gebouw","Route":"vbd","Category":"gebouw"}},{"type":"Feature","geometry":{"type":"Point","coordinates":[6.440091133117676,51.04873701680248]},"properties":{"Name":"Immerath II","Description":"Een tweede en derde bezoek van team Xerbutri aan het verlaten spookdorp Immerath","Icon":"gebouw","Route":"vimb","Category":"gebouw"}},{"type":"Feature","geometry":{"type":"Point","coordinates":[5.774774551391601,51.45767151388446]},"properties":{"Name":"Fabriek Te Strake","Description":"Bezoek aan de verlaten machinefabriek Te Strake, ook wel bekend als Colin en Aikman te Deurne","Icon":"gebouw","Route":"hmts","Category":"gebouw"}},{"type":"Feature","geometry":{"type":"Point","coordinates":[6.405372619628905,51.78559258328386]},"properties":{"Name":"Steenfabriek Rees","Description":"Urban exploren in een verlaten steenfabriek te Rees","Icon":"gebouw","Route":"hfsr","Category":"gebouw"}},{"type":"Feature","geometry":{"type":"Point","coordinates":[6.548795700073242,51.49427152303411]},"properties":{"Name":"Kolenmijn Noord","Description":"Xerbutri blijft uit het zicht van de camera's bij schacht Noord Duitsland","Icon":"gebouw","Route":"sknd","Category":"gebouw"}},{"type":"Feature","geometry":{"type":"Point","coordinates":[6.706123352050779,51.49448527283485]},"properties":{"Name":"Mijnschacht 8","Description":"Infiltratie in de actieve mijnschacht 8 in Duitsland, we staan op camera!","Icon":"gebouw","Route":"skge","Category":"gebouw"}},{"type":"Feature","geometry":{"type":"Point","coordinates":[6.429480314254762,51.05783841446225]},"properties":{"Name":"Boerderij Lutzerath","Description":"Ferdinand bezoekt een verlaten boerderij vlakbij spookdorp Lützerath, verzwolgen door bruinkoolmijn Garzweiler","Icon":"gebouw","Route":"vblu","Category":"gebouw"}},{"type":"Feature","geometry":{"type":"Point","coordinates":[7.031550407409667,51.61650185391679]},"properties":{"Name":"Schacht Polsum","Description":"De verlaten steenkoolmijn Polsum, goed verstopt in de bossen.","Icon":"gebouw","Route":"skpo","Category":"gebouw"}},{"type":"Feature","geometry":{"type":"Point","coordinates":[7.021465301513671,51.61856612319374]},"properties":{"Name":"Schacht Polsum II","Description":"Team Xerbutri klimt naar binnen via ventilatieschacht van een steenkoolmijn als bunker midden in de bossen.","Icon":"gebouw","Route":"skpot","Category":"gebouw"}},{"type":"Feature","geometry":{"type":"Point","coordinates":[5.106496810913087,51.59187326981768]},"properties":{"Name":"De Kassen","Description":"Team Xerbutri bezoekt het verlaten kassencomplex van D'n Oerts te Tilburg","Icon":"gebouw","Route":"hdk","Category":"gebouw"}},{"type":"Feature","geometry":{"type":"Point","coordinates":[5.162951946258545,51.54585674175493]},"properties":{"Name":"Villa Dennenhoef","Description":"Voormalige villa van maffiabaas op groot landgoed","Icon":"gebouw","Route":"vdh","Category":"gebouw"}},{"type":"Feature","geometry":{"type":"Point","coordinates":[6.179487705230711,51.50009522049055]},"properties":{"Name":"Mavo Roobeek","Description":"Team Xerbutri bezoekt de vernielde school Roobeek","Icon":"gebouw","Route":"or","Category":"gebouw"}},{"type":"Feature","geometry":{"type":"Point","coordinates":[6.343059539794921,51.33566926376844]},"properties":{"Name":"NAVO Kazerne","Description":"Team Xerbutri betrapt op oude NAVO kazerne in Grefrath","Icon":"gebouw","Route":"mdnv","Category":"gebouw"}},{"type":"Feature","geometry":{"type":"Point","coordinates":[5.268201828002931,49.85254769576659]},"properties":{"Name":"Atelier SNCB Bertrix","Description":"Team Xerbutri bezoekt schietbaan atelier Bertrix, een oude werkplaats van de Belgische spoorlijnen","Icon":"gebouw","Route":"bwbx","Category":"gebouw"}},{"type":"Feature","geometry":{"type":"Point","coordinates":[4.522247314453125,51.22721380442866]},"properties":{"Name":"Hof van Wijnegem","Description":"Ferdinand brengt een kort bezoek aan het Hof van Wijnegem","Icon":"gebouw","Route":"khw","Category":"gebouw"}},{"type":"Feature","geometry":{"type":"Point","coordinates":[5.757118910551072,51.31420235340113]},"properties":{"Name":"Muggenhoeve","Description":"Team Xerbutri bezoekt deze door muggen geteisterde boerderij","Icon":"gebouw","Route":"vbmh","Category":"gebouw"}},{"type":"Feature","geometry":{"type":"Point","coordinates":[5.758578032255174,51.27695525371405]},"properties":{"Name":"Beeldenhoeve","Description":"Team Xerbutri bezoekt beeldentuin, binnenzwembad en boerderij","Icon":"gebouw","Route":"vbnb","Category":"gebouw"}},{"type":"Feature","geometry":{"type":"Point","coordinates":[5.434455871582031,49.0366951126071]},"properties":{"Name":"Fort de Meuse","Description":"Team Xerbutri gaat terug naar het Fort van Génicourt","Icon":"gebouw","Route":"mdfg","Category":"gebouw"}},{"type":"Feature","geometry":{"type":"Point","coordinates":[5.434455871582031,49.0366951126071]},"properties":{"Name":"Fort de Meuse","Description":"Team Xerbutri gaat terug naar het Fort van Génicourt","Icon":"gebouw","Route":"mdfg","Category":"gebouw"}},{"type":"Feature","geometry":{"type":"Point","coordinates":[5.176198873668908,52.07518802182656]},"properties":{"Name":"Fort Rhijnauwen","Description":"Een open dag op het Fort bij Rhijnauwen","Icon":"gebouw","Route":"mfry","Category":"gebouw"}}]}